[
   {
      "city": "Tallinn",
      "lat": 59.436962,
      "long": 24.753574
   },
   {
      "city": "Tartu",
      "lat": 58.378025,
      "long": 26.728493
   },
   {
      "city": "Narva",
      "lat": 59.379913,
      "long": 28.191261
   },
   {
      "city": "Pärnu",
      "lat": 58.38588,
      "long": 24.49711
   },
   {
      "city": "Võru",
      "lat": 57.83389,
      "long": 27.01944
   }
]